ID,Name,Address,Latitude,Longitude
11,Bar & Grill,"801 E THOMAS ST, SEATTLE, WA   98102",47.62090661,-122.3218454
12,Global Fusion,"2001 W GARFIELD ST, SEATTLE, WA   98119",47.63063659,-122.3825915
13,Appricot Takeover,"1111 3RD AV, SEATTLE, WA   98101",47.60655393,-122.3353318
14,Global Nektar,"23 Grant St, Seattle",47.62655393,-122.3353318
15,Apian Niche,"345 Store Front, Seattle",47.62155393,-122.3453318
